,City Name,City ID,Latitude,Longitude,Temperature (F),Humidity (%),Cloudiness (%),Wind Speed (mph)
0,Busselton,2075265,-33.65,115.3333,49.86,97,84,1.01
1,Port Augusta,2063056,-32.5,137.7667,59.72,47,100,4.61
2,Bluff,2206939,-46.6,168.3333,42.01,93,68,1.01
3,Butaritari,2110227,3.0707,172.7902,82.33,74,66,10.89
4,Mataura,6201424,-46.1927,168.8643,42.01,93,58,1.01
5,Samarai,2132606,-10.6167,150.6667,79.65,78,51,8.01
6,Kidal,2455290,18.4411,1.4078,101.97,5,5,9.62
7,Hilo,5855927,19.7297,-155.09,71.02,78,20,6.91
8,Mengyin,1800675,35.7069,117.9264,46.51,79,13,1.99
9,Tuktoyaktuk,6170031,69.4541,-133.0374,15.8,79,20,11.5
10,Alyangula,2079582,-13.8483,136.4192,71.6,100,5,3.44
11,Yellowknife,6185377,62.456,-114.3525,30.06,86,90,14.97
12,Kununurra,2068110,-15.7667,128.7333,64.4,88,0,4.99
13,Hermanus,3366880,-34.4187,19.2345,53.01,78,2,5.5
14,Coquimbo,3893629,-29.9533,-71.3436,66.2,59,0,11.5
15,Albany,5106841,42.6001,-73.9662,54.37,72,93,10.0
16,Mabaruma,3377301,8.2,-59.7833,88.93,48,96,5.66
17,Severo-Kuril'Sk,2121385,50.6789,156.125,34.97,92,100,18.43
18,Vaini,4032243,-21.2,-175.2,75.2,94,75,11.5
19,Doha,290030,25.2867,51.5333,85.41,48,0,3.44
20,Nhulunbuy,2064735,-12.2333,136.7667,75.2,88,75,6.91
21,Port Alfred,964432,-33.5906,26.891,63.68,74,61,15.9
22,Sur,286245,22.5667,59.5289,85.21,42,76,9.82
23,Atuona,4020109,-9.8,-139.0333,78.76,71,19,5.46
24,Tsabong,932987,-26.0217,22.401,63.43,26,0,7.16
25,Kapaa,5848280,22.0752,-159.319,68.56,88,75,6.91
26,Nome,5870133,64.5011,-165.4064,16.32,73,1,3.44
27,Avarua,4035715,-21.2078,-159.775,77.0,94,90,2.3
28,Guerrero Negro,4021858,27.9769,-114.0611,81.66,32,0,11.5
29,Punta Arenas,3874787,-53.15,-70.9167,41.0,100,90,8.05
30,Porto-Novo,2392087,6.4965,2.6036,86.0,79,40,14.97
31,Aswān,359792,24.0934,32.907,94.75,8,0,12.93
32,Hithadhoo,1282256,-0.6,73.0833,84.18,73,42,7.76
33,Sfântu Gheorghe,667303,45.8667,25.7833,53.91,71,59,4.12
34,Vao,2137773,-22.6667,167.4833,74.53,59,91,18.97
35,Cascais,2269594,38.6979,-9.4215,60.76,55,20,16.11
36,Bengkulu,1649150,-3.8004,102.2655,76.68,88,100,3.24
37,Fortuna,5563839,40.5982,-124.1573,59.45,82,1,6.42
38,Poum,2138555,-20.2333,164.0167,75.49,69,70,11.34
39,Gushikawa,1863495,26.3544,127.8686,67.21,82,1,6.91
40,Jamestown,5122534,42.097,-79.2353,45.61,70,90,17.27
41,Tasiilaq,3424607,65.6145,-37.6368,33.8,64,20,11.5
42,Alofi,4036284,-19.0595,-169.9187,71.6,100,100,1.14
43,Saint-Philippe,935215,-21.3585,55.7679,72.23,78,0,4.61
44,Saldanha,3361934,-33.0117,17.9442,59.0,58,0,13.8
45,Klaksvík,2618795,62.2266,-6.589,39.2,60,75,9.22
46,Husavik,2629833,66.0449,-17.3389,32.0,100,90,14.97
47,Bambous Virieux,1106677,-20.3428,57.7575,78.42,78,40,14.97
48,Saint Paul Harbor,5866583,57.79,-152.4072,42.8,52,1,11.5
49,Emerald,2167426,-23.5333,148.1667,61.02,94,6,6.91
50,Castro,3466704,-24.7911,-50.0119,67.69,50,21,8.41
51,Ndélé,237379,8.4109,20.6473,84.92,41,40,3.74
52,Korla,1529376,41.7597,86.1469,74.21,16,0,4.18
53,Chui,3443061,-33.6971,-53.4616,70.84,44,3,6.46
54,Palana,2122262,59.1167,159.9667,29.07,92,100,6.42
55,Hobart,2163355,-42.8794,147.3294,47.93,87,4,8.05
56,Ancud,3899695,-41.8697,-73.8203,55.18,100,90,16.11
57,Ushuaia,3833367,-54.8,-68.3,41.0,81,75,1.14
58,Kaitangata,2208248,-46.2817,169.8464,46.99,72,42,1.99
59,Isangel,2136825,-19.55,169.2667,76.48,77,80,14.76
60,New Norfolk,2155415,-42.7826,147.0587,47.97,86,5,3.15
61,Port Lincoln,2063036,-34.7333,135.8667,67.24,40,100,12.17
62,Nikolskoye,546105,59.7035,30.7861,43.79,53,0,4.47
63,Shimoda,1852357,34.6667,138.95,52.0,76,0,15.61
64,Clyde River,5924351,70.4692,-68.5914,23.0,100,90,3.44
65,Gillette,5826027,44.2911,-105.5022,72.93,27,1,13.8
66,Rikitea,4030556,-23.1203,-134.9692,78.84,76,40,20.24
67,Mercedes,3430708,-34.6515,-59.4307,73.33,51,0,11.99
68,Bredasdorp,1015776,-34.5322,20.0403,53.6,71,29,2.3
69,Valdemārpils,454584,57.3707,22.5919,41.0,70,0,9.22
70,Snezhnogorsk,795243,69.1933,33.2531,28.4,40,0,6.71
71,Bethel,5282297,41.3712,-73.414,62.67,42,90,16.11
72,Nantucket,4944903,41.2835,-70.0995,59.0,63,75,24.16
73,Pacific Grove,5380437,36.6177,-121.9166,55.54,76,40,9.22
74,Hong Kong,1819729,22.2855,114.1577,74.93,85,89,0.51
75,Lebu,3883457,-37.6167,-73.65,59.29,79,100,19.75
76,Yar-Sale,1486321,66.8333,70.8333,27.39,94,92,13.24
77,Dicabisagan,1715015,17.0818,122.4157,75.31,82,47,2.86
78,Sitka,5557293,57.0531,-135.33,44.6,81,90,3.47
79,Hobyo,57000,5.3505,48.5268,85.14,64,92,12.21
80,Galveston,4692856,29.3669,-94.9669,72.09,94,90,5.75
81,Santa Elena,3651438,-2.2333,-80.85,78.8,78,0,10.36
82,Buala,2109528,-8.145,159.5921,78.73,82,95,4.14
83,Port Elizabeth,964420,-33.918,25.5701,59.0,82,0,14.97
84,Whitianga,2179103,-36.8333,175.7,58.98,78,91,7.16
85,Yangi Marg`Ilon,1513491,40.4272,71.7189,77.0,25,87,9.22
86,Vardø,777019,70.3705,31.1107,24.8,74,20,18.41
87,Muncar,1634718,-8.4333,114.3333,74.68,86,62,1.25
88,Narsaq,3421719,60.9167,-46.05,57.2,26,20,18.41
89,Puerto Ayora,3652764,-0.7393,-90.3518,82.4,69,40,17.27
90,Caravelas,3466980,-17.7125,-39.2481,75.54,79,84,12.03
91,Nouadhibou,2377457,20.931,-17.0347,73.4,73,0,20.71
92,Cancún,3531673,21.1743,-86.8466,84.94,62,75,19.57
93,Skjervøy,777682,70.0311,20.9714,26.6,80,90,16.11
94,Moses Lake,5803990,47.1301,-119.2781,65.43,45,1,6.91
95,Coahuayana Viejo,4013679,18.7333,-103.6833,77.0,69,1,7.83
96,Esperance,2071860,-33.8667,121.9,46.4,93,74,5.75
97,Amparafaravola,1078446,-17.5833,48.2167,64.44,96,16,4.21
98,Carnarvon,2074865,-24.8667,113.6333,68.0,77,86,11.5
99,Aklavik,5882953,68.2191,-135.0107,25.65,74,100,8.05
100,Dikson,1507390,73.5069,80.5464,5.5,96,92,9.06
101,Port-Gentil,2396518,-0.7193,8.7815,84.2,79,40,6.91
102,Hearst,5973108,49.6835,-83.6665,35.6,48,84,12.66
103,Imbituba,3461370,-28.24,-48.6703,75.2,57,20,10.36
104,Vestmannaeyjar,3412093,63.4427,-20.2734,42.8,65,75,13.8
105,Pilot Butte,6104745,50.4668,-104.4178,62.4,27,98,14.97
106,Brasília,3469058,-15.7797,-47.9297,76.06,65,75,12.66
107,Naze,1855540,28.3667,129.4833,66.4,78,100,16.08
108,George Town,1735106,5.4112,100.3354,77.0,94,40,9.1
109,Pochutla,3517970,15.7432,-96.4661,87.55,66,90,11.5
110,Khatanga,2022572,71.9667,102.5,30.61,96,100,8.99
111,Kathmandu,1283240,27.7167,85.3167,60.8,82,20,4.61
112,Inhambane,1045114,-23.865,35.3833,77.52,83,40,5.75
113,Airai,1651810,-8.9266,125.4092,57.45,86,100,2.68
114,Ilulissat,3423146,69.2167,-51.1,39.2,48,20,3.44
115,Faanui,4034551,-16.4833,-151.75,79.14,78,97,4.52
116,Mpika,905846,-11.8343,31.4529,62.29,91,24,2.93
117,Gayéri,2360541,12.6497,0.4931,102.87,12,54,6.35
118,Misratah,2214846,32.3754,15.0925,79.23,47,96,13.69
119,Forbes,2166368,-33.3833,148.0167,53.1,75,0,4.76
120,Tuatapere,2180815,-46.1333,167.6833,42.01,93,65,1.01
121,Carbonear,5916722,47.7332,-53.2148,45.68,61,75,16.11
122,Cape Town,3369157,-33.9258,18.4232,59.41,72,0,16.11
123,Qaanaaq,3831208,77.484,-69.3632,33.04,65,54,6.4
124,Bridlington,2654728,54.0831,-0.1919,46.69,72,70,5.01
125,Upernavik,3418910,72.7868,-56.1549,33.98,78,94,5.77
126,Olinda,3393536,-8.0089,-34.8553,82.4,69,40,17.27
127,Mar Del Plata,3430863,-38.0023,-57.5575,69.57,60,0,18.41
128,Kruisfontein,986717,-34.0033,24.7314,55.99,74,0,1.01
129,Wajir,178443,1.7471,40.0573,86.59,48,47,7.65
130,Ayorou,2447416,14.7308,0.9174,101.05,10,20,5.93
131,Takaka,2181997,-40.85,172.8,55.99,82,80,1.01
132,Provideniya,4031574,64.3833,-173.3,27.12,67,97,2.37
133,Tucumcari,5495360,35.1717,-103.725,66.2,32,1,3.44
134,Moramanga,1058532,-18.9333,48.2,62.11,99,28,2.01
135,Oxford,2640729,51.7522,-1.256,48.47,61,40,6.91
136,Berlevåg,780687,70.8578,29.0864,27.05,86,20,13.8
137,Blairmore,5903535,49.6,-114.4353,61.81,36,40,23.02
138,Lüderitz,3355672,-26.6481,15.1594,66.02,43,0,21.81
139,Kavieng,2094342,-2.5744,150.7967,81.43,76,79,5.28
140,Yumen,1528998,40.2833,97.2,65.64,10,68,6.46
141,Benghazi,88319,32.1167,20.0667,82.08,29,40,4.43
142,Koungou,1090225,-12.7336,45.2042,80.6,83,20,8.05
143,Flinders,6255012,-34.5833,150.8552,57.58,89,9,1.01
144,Barrow,5880054,71.2906,-156.7887,19.4,86,90,4.61
145,Azul,3436199,-36.777,-59.8585,70.0,53,0,12.93
146,Eureka,5563397,40.8021,-124.1637,57.13,77,91,5.01
147,Balkanabat,161616,39.5108,54.3671,75.6,43,52,5.86
148,Port Hawkesbury,6111867,45.6169,-61.3485,43.61,100,90,20.71
149,Thompson,6165406,55.7435,-97.8558,39.2,38,75,3.44
150,Karligan,1718367,14.975,122.0456,78.35,82,44,3.85
151,Östersund,2685750,63.1792,14.6357,36.32,69,75,14.97
152,Shūshtar,114584,32.0455,48.8567,89.29,11,0,4.52
153,Severnyy,496358,50.677,36.5532,62.6,48,0,8.95
154,Lagoa,3372964,39.05,-27.9833,58.05,62,10,4.81
155,Shelburne,6145890,44.0787,-80.2041,39.16,95,75,24.76
156,Anshun,1817968,26.25,105.9333,62.28,83,100,1.52
157,Sharanga,495767,57.1775,46.5396,49.48,69,100,18.77
158,Thoen,1150154,17.6129,99.2161,78.01,99,79,1.59
159,Wollongong,2171507,-34.4333,150.8833,56.05,89,10,1.01
160,Ostrovnoy,556268,68.0531,39.5131,25.34,86,100,8.68
161,Khuzdar,7082481,27.7384,66.6434,67.91,51,69,7.27
162,Ruteng,1629380,-8.6136,120.4721,62.78,92,25,0.54
163,Rionegro,3670730,6.1552,-75.3737,62.87,82,75,3.44
164,Tessalit,2449893,20.1986,1.0114,105.39,5,75,15.64
165,Kavaratti,1267390,10.5669,72.642,84.83,73,17,8.68
166,Cabo San Lucas,3985710,22.8909,-109.9124,82.98,32,1,8.05
167,Hualmay,3939761,-11.0964,-77.6139,72.59,71,9,9.57
168,Papetoai,4033910,-17.4961,-149.8729,77.88,78,75,2.3
169,Pisco,3932145,-13.7,-76.2167,69.03,78,0,12.66
170,Shubarshi,608270,48.5872,57.1869,52.79,39,4,7.36
171,Hofn,2630299,64.2539,-15.2082,35.6,80,90,12.66
172,Maningrida,2067089,-12.0667,134.2667,72.12,84,79,8.05
173,Smithers,6149996,54.7804,-127.1743,46.4,76,90,2.3
174,Priyutovo,505014,53.9,53.9333,45.9,53,42,6.91
175,Hātā,1270232,26.7461,83.7403,85.53,30,27,8.66
176,Lodja,211647,-3.4833,23.4333,71.02,99,99,0.38
177,Basco,1726449,20.4487,121.9702,77.99,81,1,7.11
178,Barreiras,3470583,-12.1528,-44.99,83.53,49,90,4.12
179,Quatre Cocos,1106643,-20.2078,57.7625,78.39,78,40,14.97
180,Nha Trang,1572151,12.25,109.1833,80.6,78,20,2.3
181,Mayumba,2399001,-3.432,10.6554,79.95,86,100,4.72
182,Chokurdakh,2126123,70.6333,147.9167,-1.64,95,31,4.16
183,Fairbanks,5861897,64.8378,-147.7164,30.11,74,90,11.5
184,San Cristobal,3628473,7.7669,-72.225,82.4,65,75,5.75
185,Road Town,3577430,18.4167,-64.6167,81.84,74,40,10.36
186,Cauquenes,3896105,-35.9671,-72.3225,65.79,51,100,12.77
187,Ossora,2122389,59.2353,163.0719,30.0,92,98,4.12
188,Souillac,933995,-20.5167,57.5167,78.8,78,40,14.97
189,Utrān,1253640,21.2333,72.8667,84.2,84,94,3.44
190,Cap Malheureux,934649,-19.9842,57.6142,78.01,81,8,5.99
191,Kayerkan,1497337,69.3497,87.7602,18.41,90,61,3.87
192,Ribeira Grande,3372707,38.5167,-28.7,62.6,67,75,6.91
193,Saint George,5546220,37.1041,-113.5841,80.1,21,15,2.51
194,Yairipok,1252810,24.6667,94.0667,69.39,73,80,2.35
195,Puerto Colombia,3671497,10.9878,-74.9547,91.4,49,40,9.22
196,Rafai,236524,4.95,23.9167,71.6,81,93,2.39
197,Camaçari,3468031,-12.6975,-38.3242,77.0,83,75,13.8
198,Williston,5692947,48.147,-103.618,73.99,34,100,5.01
199,Nagornskiy,558209,58.7731,57.5451,30.0,52,83,4.27
200,Karasjok,779350,69.4719,25.5112,26.6,100,90,19.57
201,Devonport,2168943,-41.1667,146.35,51.42,95,15,6.4
202,Inta,1505579,66.0317,60.1659,30.06,72,67,10.8
203,Maţāy,352628,28.419,30.7792,94.66,9,0,19.71
204,Ponta Do Sol,2264557,32.6667,-17.1,59.88,46,11,8.01
205,Heihe,2036973,50.2441,127.4902,37.4,70,40,8.95
206,Joshīmath,1268814,30.5667,79.5667,56.68,67,88,6.44
207,Kaka,161901,37.3482,59.6143,73.85,49,96,2.01
208,Sistranda,3139597,63.7256,8.834,41.0,70,75,9.22
209,Zhangaözen,607610,43.3,52.8,66.09,32,81,12.39
210,Bom Jesus,3405304,-9.0744,-44.3586,88.74,41,86,4.47
211,Timbiquí,3667070,2.7717,-77.6654,74.3,95,100,0.72
212,Betioky,1066310,-23.7167,44.3833,72.55,70,42,3.96
213,Pevek,2122090,69.7008,170.3133,13.35,93,100,10.29
214,Jesús María,3853510,-30.9815,-64.0942,74.59,43,0,17.27
215,Saskylakh,2017155,71.9167,114.0833,31.96,86,100,10.04
216,Geraldton,2070998,-28.7667,114.6,53.6,71,81,8.05
217,Aasiaat,3424901,68.7098,-52.8699,33.8,77,80,7.11
218,Sulangan,1685422,11.1373,123.7228,82.06,79,68,9.1
219,Pozo Colorado,3437443,-23.4923,-58.7972,86.83,24,0,6.08
220,Mount Gambier,2156643,-37.8333,140.7667,57.2,54,100,8.05
221,Littleton,5429032,39.6133,-105.0166,72.18,24,0,1.01
222,Zacatlán,3514148,19.9333,-97.9667,68.63,69,97,7.76
223,Mandera,187896,3.9366,41.867,88.61,47,75,5.48
224,Novobelokatay,519027,55.7062,58.9549,38.1,69,75,3.96
225,Belmonte,3470137,-15.8631,-38.8828,80.6,65,40,8.05
226,Lashio,1314759,22.9333,97.75,67.1,87,68,2.42
227,East London,1006984,-33.0153,27.9116,60.8,77,0,11.5
228,Egvekinot,4031742,66.3167,-179.1667,18.48,93,100,2.17
229,Cherskiy,2126199,68.75,161.3,-1.75,99,99,1.81
230,Río Gallegos,3838859,-51.6226,-69.2181,41.0,93,75,13.8
231,Abu Samrah,172515,35.3029,37.1841,72.97,30,0,11.3
232,Griffith,4920986,41.5284,-87.4237,49.14,61,1,14.97
233,Rocha,3440777,-34.4833,-54.3333,70.52,52,2,7.49
234,Zaozyornoye,687726,45.1582,33.2787,55.0,66,67,7.52
235,Saryg-Sep,1492948,51.5,95.6,48.52,93,100,0.81
236,Dali,1814093,25.7,100.1833,59.56,67,87,2.48
237,Kosjerić,3197622,43.9961,19.9069,69.8,35,0,4.61
238,Conakry,2422465,9.538,-13.6773,84.2,65,0,16.11
239,Borger,2758621,52.9233,6.7931,46.35,85,95,1.01
240,Kieta,2094027,-6.2167,155.6333,78.12,81,54,0.92
241,Cabatuan,1721720,10.8794,122.486,75.79,64,45,5.57
242,Maceió,3395981,-9.6658,-35.7353,86.0,66,75,11.5
243,Sørland,3137469,67.667,12.6934,35.6,75,40,16.11
244,Avera,4231997,33.194,-82.5271,80.15,41,1,9.22
245,Acarí,3948613,-15.4311,-74.6158,78.62,53,21,8.84
246,Mehamn,778707,71.0357,27.8492,30.2,93,75,35.68
247,Sioux Lookout,6148373,50.1001,-91.917,44.6,33,20,6.91
248,Dingle,1714733,10.9995,122.6711,75.99,69,55,5.14
249,Dauphin,5935341,51.1494,-100.0502,55.4,24,1,16.11
250,Auki,2109701,-8.7676,160.7034,76.68,87,92,3.47
251,Elbasan,783263,41.1125,20.0822,69.8,64,0,8.05
252,Nanortalik,3421765,60.1432,-45.2371,42.3,63,7,5.77
253,Roald,3141667,62.5833,6.1333,41.52,65,75,10.36
254,Tura,1254046,25.5198,90.2201,78.26,39,41,4.5
255,Aksu,1529660,41.1231,80.2644,71.98,10,0,4.07
256,Paamiut,3421193,61.994,-49.6678,38.19,80,2,5.97
257,Arraial Do Cabo,3471451,-22.9661,-42.0278,77.0,69,20,10.36
258,Sept-Îles,6144312,50.2001,-66.3821,47.05,76,90,14.97
259,Sabang,1214026,5.8933,95.3214,82.87,71,100,3.51
260,Abu Dhabi,292968,24.4667,54.3667,82.4,57,0,3.44
261,Kenai,5866063,60.5544,-151.2583,35.17,86,90,10.36
262,Longyearbyen,2729907,78.2186,15.6401,21.2,63,40,12.66
263,Huarmey,3939168,-10.0681,-78.1522,73.02,73,8,9.8
264,Venado Tuerto,3833062,-33.7456,-61.9688,74.48,99,0,15.99
265,Nurobod,1513064,40.9056,69.8023,66.2,63,0,11.5
266,Viedma,3832899,-40.8135,-62.9967,79.12,29,64,18.12
267,Putina,3931137,-15.4667,-69.4333,46.22,61,6,6.85
268,Karhal,1267772,27.0003,78.9414,90.77,20,8,11.88
269,Bairiki Village,7601762,1.3292,172.9752,80.6,83,75,4.61
270,Lázaro Cárdenas,4026082,17.9583,-102.2,84.43,58,42,9.89
271,Mogadishu,53654,2.0371,45.3438,82.83,73,48,12.82
272,Manche,2996268,49.0,-1.1667,51.8,58,75,8.05
273,Ishigaki,1861416,24.3448,124.1572,74.95,89,84,10.25
274,Bambanglipuro,1650434,-7.95,110.2833,76.53,90,74,4.65
275,Byron Bay,2172880,-28.65,153.6167,61.52,100,90,6.91
276,Cockburn Town,3576994,21.4612,-71.1419,82.4,61,40,11.5
277,Saint-François,2980080,46.4154,3.9054,53.6,62,75,8.05
278,Lata,2738381,40.1629,-8.3327,60.08,51,40,17.27
279,Sakakah,102527,29.9697,40.2064,89.6,11,0,3.44
280,Kloulklubed,7671223,7.0419,134.2556,83.55,76,100,12.68
281,Jinka,333750,5.65,36.65,63.39,94,96,2.68
282,Morehead,4301317,37.2711,-87.1764,72.25,33,1,8.05
283,Williams Lake,6182212,52.1415,-122.1445,55.69,53,75,5.08
284,Talnakh,1490256,69.4865,88.3972,18.82,81,30,3.62
285,Nizwá,286987,22.9333,57.5333,76.89,44,62,2.08
286,Cayenne,3382160,4.9333,-52.3333,82.94,74,75,3.44
287,Saýat,1218436,38.7839,63.8803,75.2,41,0,11.5
288,Lakes Entrance,2160735,-37.8811,147.981,54.27,66,1,4.32
289,Ati,2436400,13.2154,18.3353,93.15,7,1,8.93
290,Dibulla,3685223,11.2725,-73.3091,82.76,69,71,9.01
291,Codrington,2171099,-38.2667,141.9667,57.43,46,82,9.01
292,Qaqortoq,3420846,60.7167,-46.0333,57.2,26,20,18.41
293,Haverfordwest,2647311,51.8017,-4.9691,47.5,75,39,1.99
294,Los Llanos De Aridane,2514651,28.6585,-17.9182,63.72,60,75,21.85
295,Sittwe,1295765,20.15,92.9,81.75,75,8,2.71
296,Tazovsky,1489853,67.4667,78.7,31.57,96,100,11.14
297,Sola,2134814,-13.8833,167.55,81.0,74,99,19.04
298,Wejherowo,3082473,54.6057,18.2356,41.34,87,40,12.66
299,Broome,5110365,42.2506,-75.833,48.85,71,90,18.41
300,Richards Bay,962367,-28.783,32.0377,65.93,86,100,16.51
301,Cidreira,3466165,-30.1811,-50.2056,71.1,64,0,13.8
302,Saint-Augustin,6137462,51.226,-58.6502,42.6,79,98,8.77
303,Buchanan,2278158,5.8808,-10.0467,84.2,84,75,9.22
304,Oyama,1853483,36.3,139.8,58.08,81,20,3.44
305,Pa Sang,1151528,18.5262,98.9394,80.58,78,40,5.75
306,Jumla,1283285,29.2747,82.1838,49.69,90,97,2.93
307,Whitehorse,6180550,60.7161,-135.0538,45.46,42,75,9.22
308,Havre-St-Pierre,5972291,50.2334,-63.5986,48.2,76,1,13.8
309,Iqaluit,5983720,63.7506,-68.5145,33.39,86,75,14.97
310,Oleksandrivka,713676,46.8383,32.7612,58.1,67,0,11.18
311,San Patricio,4726521,28.017,-97.5169,74.03,88,90,3.44
312,Amnat Charoen,1906689,15.9167,104.75,79.43,67,16,5.32
313,Atar,2381334,20.5169,-13.0499,91.26,15,3,11.61
314,Gao,2457161,16.6362,1.637,100.04,7,5,7.76
315,Salalah,286621,17.0151,54.0924,84.2,84,75,5.75
316,Tiksi,2015306,71.6872,128.8694,30.49,79,95,3.0
317,Puerto Escondido,3520994,15.85,-97.0667,86.0,74,40,10.16
318,Mana,3381041,5.6592,-53.7767,75.88,93,98,7.92
319,Yantal',2055868,56.8471,105.2542,35.17,92,100,3.91
320,Santa Vitória Do Palmar,3449747,-33.5189,-53.3681,71.04,44,2,5.84
321,Norman Wells,6089245,65.282,-126.8329,37.4,52,20,4.61
322,Saint-Joseph,6690296,-21.3667,55.6167,72.34,78,0,4.61
323,Mangan,1263776,27.5167,88.5333,67.93,63,82,6.38
324,Wanaka,2184707,-44.7,169.15,43.97,88,78,0.54
325,Anadyr,2127202,64.75,177.4833,17.26,79,40,8.95
326,Nchelenge,175499,-9.3451,28.734,71.35,85,90,3.06
327,Lewisporte,6053446,49.2499,-55.0482,50.5,50,75,10.36
328,Los Reyes Acaquilpan,3523908,19.35,-98.9667,75.09,41,20,1.48
329,Dehlorān,136702,32.6941,47.2679,89.29,15,0,7.34
330,San Andrés,3670218,12.5847,-81.7006,86.0,66,40,9.22
331,Torres,3446295,-29.3353,-49.7269,71.31,64,0,12.26
332,Esil,1524296,51.9556,66.4042,48.88,50,61,12.24
333,Soma,300371,39.1855,27.6094,75.65,50,0,8.05
334,Kutum,371745,14.2,24.6667,84.83,13,17,8.34
335,Arys,1526168,42.4252,68.795,60.8,88,75,4.47
336,Namatanai,2090021,-3.6667,152.4333,78.44,80,35,3.65
337,Dauriya,2025099,49.9333,116.8667,32.85,85,58,6.15
338,Pudozh,504269,61.8099,36.5345,36.12,63,12,3.69
339,Messíni,257152,37.0511,22.0078,68.0,56,0,1.23
340,Manta,3654410,-0.95,-80.7333,80.6,83,75,4.61
341,Towada,2129211,40.6127,141.2067,46.99,84,38,7.0
342,Aliaga,1731529,15.5167,120.8667,80.6,83,75,4.61
343,Astoria,5711847,46.1879,-123.8313,54.32,94,90,9.22
344,Norwalk,5377995,33.9022,-118.0817,82.08,32,1,3.44
345,Port Hardy,6111862,50.6996,-127.4199,51.1,82,75,3.44
346,Greenville,4469160,35.6127,-77.3663,78.89,29,1,11.5
347,Belaya Gora,2126785,68.5333,146.4167,22.87,90,100,9.35
348,Cocentaina,2519382,38.7398,-0.4398,62.6,70,90,10.0
349,Chumikan,2025256,54.7183,135.315,28.33,98,100,7.16
350,Istanbul,745042,41.0351,28.9833,67.87,68,0,4.61
351,Duluth,5024719,46.7833,-92.1066,48.4,32,1,8.05
352,Lichinga,1043893,-13.3128,35.2406,68.0,83,20,6.91
353,Ulaanbaatar,2028462,47.9077,106.8832,28.4,80,40,2.24
354,Ayan,2027316,56.45,138.1667,30.31,97,100,14.61
355,Manacapuru,3663529,-3.2997,-60.6206,82.4,78,40,6.91
356,Muravlenko,1540711,63.7898,74.523,30.52,95,100,17.4
357,Tabou,2281120,4.423,-7.3528,82.45,75,97,7.34
358,Menongue,3347353,-14.6585,17.691,65.39,82,85,5.17
359,Shādegān,116102,30.6497,48.6647,86.81,61,0,9.22
360,Leningradskiy,2123814,69.3833,178.4167,15.4,87,94,19.3
361,Seybaplaya,3516685,19.65,-90.6667,91.4,49,20,14.97
362,Cody,5821593,44.5263,-109.0565,70.66,21,1,11.5
363,Channel-Port Aux Basques,5919815,47.5702,-59.1367,39.63,85,97,22.46
364,Shingū,1847947,33.7333,135.9833,52.0,65,0,5.97
365,Namanyere,151986,-7.5167,31.05,61.79,94,60,4.09
366,Nuuk,3421319,64.1835,-51.7216,32.0,100,40,17.27
367,Torbay,6167817,47.6666,-52.7314,48.2,61,75,16.11
368,Santo Tomas,1687534,14.1079,121.1414,81.77,78,75,3.44
369,Champerico,3598787,14.3,-91.9167,86.0,62,40,6.91
370,Newport,2641598,51.5877,-2.9984,50.0,65,66,1.01
371,Salisbury,2638664,51.0693,-1.7957,44.89,71,75,11.5
372,Mahibadhoo,1337605,3.7833,72.9667,83.77,64,7,3.11
373,Saint-Pierre,935214,-21.3393,55.4781,73.08,78,0,4.61
374,Constitución,3893726,-35.3333,-72.4167,59.32,78,100,11.63
375,Sheltozero,494970,61.3667,35.3667,35.01,68,99,1.32
376,Marawi,1701054,7.9986,124.2928,77.0,88,83,4.0
377,Kwinana,2068079,-32.25,115.7667,57.74,88,90,9.08
378,Fallon,5503914,39.4735,-118.7774,76.05,19,75,5.75
379,Nova Petrópolis,3456127,-29.3764,-51.1144,72.66,34,0,1.01
380,Huilong,1806840,31.8111,121.655,64.6,68,95,11.72
381,Ploemeur,2986732,47.7333,-3.4333,55.27,47,90,4.61
382,Palmer,4946620,42.1584,-72.3287,56.41,58,75,18.41
383,Laguna,5364271,38.421,-121.4238,69.57,48,1,4.61
384,Yulara,6355222,-25.2406,130.9889,53.6,40,84,4.61
385,Ullapool,2635199,57.8987,-5.1604,44.01,70,99,4.0
386,Udachny,2014624,66.4167,112.4,26.08,99,100,3.76
387,Bodh Gaya,1275389,24.7,84.9833,89.6,37,75,3.44
388,Baiyin,1817240,36.5583,104.2081,50.0,50,0,6.71
389,Flin Flon,5954718,54.7682,-101.865,42.8,36,90,6.91
390,Pueblo,5435464,38.2545,-104.6091,74.37,21,1,4.61
391,Seoul,1835848,37.5683,126.9778,50.58,81,90,2.3
392,Sibolga,1213855,1.7427,98.7792,77.02,87,100,3.8
393,Askiz,1511304,53.1319,90.5264,43.99,82,100,4.23
394,Nabire,1634614,-3.3667,135.4833,75.18,90,73,3.53
395,Kahului,5847411,20.8947,-156.47,68.36,100,90,12.66
396,Polyarny,506763,69.1989,33.4478,28.4,40,0,6.71
397,Songadh,1255762,21.1667,73.5667,87.53,40,99,5.95
398,Vanimo,2084442,-2.6741,141.3028,77.94,89,85,5.84
399,Pangoa,3933104,-12.1167,-73.0,82.27,49,28,4.16
400,Jūybār,129933,36.6412,52.9124,60.8,94,75,4.61
401,Warwick,5225507,41.7001,-71.4162,62.82,45,90,21.85
402,Ahipara,2194098,-35.1667,173.1667,59.13,81,91,9.06
403,Gamba,2400547,-2.65,10.0,78.93,84,100,5.32
404,Lorengau,2092164,-2.0226,147.2712,80.01,79,96,3.09
405,Chongwe,917688,-15.3292,28.682,70.0,70,86,4.27
406,Maniwaki,6065262,46.3834,-75.966,51.8,87,100,6.91
407,Narrabri,2155742,-30.3167,149.7833,56.08,67,2,9.22
408,Zabul Province,1121143,32.25,67.25,66.24,38,18,6.02
409,High Rock,3572189,26.6208,-78.2833,84.2,61,75,10.36
410,Presidencia Roque Sáenz Peña,3840300,-26.7852,-60.4388,81.0,47,0,1.99
411,Sartell,5046001,45.6216,-94.2069,50.67,32,1,4.61
412,Corrente,3409644,-3.7367,-43.3394,86.61,59,63,3.27
413,Mumford,2297810,5.2618,-0.759,83.25,73,100,9.28
414,Bonoua,2291087,5.2741,-3.595,86.0,79,20,12.66
415,Mahabalipuram,1263997,12.6264,80.1722,85.08,79,40,8.05
416,Rincon,4218882,32.296,-81.2354,85.44,45,75,16.11
417,Bandarbeyla,64814,9.4942,50.8122,84.36,73,25,10.09
418,Guadalupe Victoria,3979505,32.2869,-115.105,91.35,9,1,5.75
419,Semīrom,116406,31.4167,51.5667,58.32,38,57,1.74
420,Granada,2517115,37.25,-3.25,55.63,59,100,4.0
421,Kannad,1268020,20.2667,75.1333,87.12,25,100,17.58
422,Antananarivo,1070940,-18.9137,47.5361,64.4,88,20,5.75
423,Sapele,2323675,5.8941,5.6767,83.28,71,100,7.31
424,Nassau,5128316,40.7507,-73.5829,64.94,34,40,24.16
425,Tairua,2182010,-37.0167,175.85,55.99,91,86,1.01
426,Novomalorossiyskaya,518621,45.6348,39.8948,60.01,79,9,4.05
427,Mahébourg,934322,-20.4081,57.7,78.8,78,40,14.97
428,Mount Isa,2065594,-20.7333,139.5,73.4,33,0,4.61
429,Grand Gaube,934479,-20.0064,57.6608,78.01,81,9,5.99
430,Karpogory,552256,64.0019,44.4451,35.89,67,100,5.26
431,Nyurba,2018735,63.2842,118.3319,30.13,97,100,3.76
432,Quartucciu,2523666,39.2519,9.1794,66.87,82,0,11.5
433,Lompoc,5367788,34.6391,-120.4579,61.07,94,90,6.91
434,Valera,3625542,9.3178,-70.6036,79.5,75,97,3.53
435,Esim,2303611,4.8699,-2.2405,83.17,74,59,8.46
436,Chivilcoy,3861344,-34.8957,-60.0167,73.99,67,0,11.01
437,Lavrentiya,4031637,65.5833,-171.0,16.63,85,25,4.47
438,Ola,2122574,59.5833,151.2833,29.95,86,100,1.36
439,Kragerø,3149412,58.8693,9.4149,48.99,57,47,5.01
440,Opuwo,3354077,-18.0607,13.84,76.05,32,50,6.53
441,Arua,235039,3.0201,30.9111,66.97,89,95,1.54
442,Maryville,4639848,35.7565,-83.9705,71.56,49,75,11.36
443,Tigil',2120612,57.8,158.6667,33.53,88,100,2.89
444,Kyaukse,1316703,21.6,96.1333,81.82,67,40,0.83
445,Tevaitoa,4033375,-16.7833,-151.5,80.15,73,100,3.51
446,Vanavara,2013727,60.34,102.2797,33.4,98,100,4.32
447,Kokoda,2093691,-8.8785,147.7407,71.15,94,57,3.49
448,Hailey,5594956,43.5196,-114.3153,70.18,28,20,9.22
449,Srednekolymsk,2121025,67.45,153.6833,6.85,96,35,7.67
450,Bulgan,2032201,48.8125,103.5347,40.73,62,94,3.31
451,Vanderhoof,6173361,54.0166,-124.0198,54.72,49,10,8.37
452,Tromsø,6453316,69.6496,18.957,26.82,80,75,2.3
453,Deputatsky,2028164,69.3,139.9,16.02,98,99,0.67
454,Sochi,491422,43.6,39.7303,57.45,88,75,4.47
455,Atambua,1651103,-9.1061,124.8925,71.94,90,100,3.89
456,Marau,3457817,-28.4492,-52.2,73.35,33,0,7.0
457,Bertoua,2234359,4.5833,13.6833,75.94,71,90,2.35
458,Vallenar,3868633,-28.5708,-70.7581,75.06,30,33,6.69
459,Porto Velho,3662762,-8.7619,-63.9039,82.4,65,75,6.91
460,Saint Anthony,5044290,45.0205,-93.218,53.2,35,1,6.91
461,Zelenogorskiy,1485284,55.0333,87.0,42.8,49,0,8.95
462,Honningsvåg,779554,70.9821,25.9704,32.0,69,75,34.52
463,Ikeda,1861795,34.8221,135.4298,51.64,77,18,3.58
464,Alcúdia,2522091,39.8532,3.1214,65.07,77,20,8.05
465,Miraflores,3761194,19.2167,-98.8083,73.42,41,20,4.72
466,Bilma,2446796,18.6853,12.9164,93.11,4,0,6.58
467,Baykit,1510689,61.67,96.37,34.77,97,100,3.8
468,Luwuk,1637001,-0.9516,122.7875,76.96,85,65,2.55
469,Rundu,3353383,-17.9333,19.7667,72.32,51,94,2.33
470,Najrān,103630,17.4924,44.1277,82.4,32,75,11.5
471,Hantsport,5970414,45.0668,-64.1654,48.06,87,100,9.22
472,Vitim,2013375,59.4511,112.5578,22.15,97,69,2.08
473,São Filipe,3374210,14.8961,-24.4956,71.78,78,82,13.69
474,Eganville,5947035,45.5334,-77.0994,36.03,93,90,13.8
475,Cairns,2172797,-16.9167,145.7667,71.29,83,9,11.5
476,Bagdarin,2027244,54.4333,113.6,23.72,90,7,3.04
477,Ochakiv,698770,46.6128,31.5498,52.03,94,20,6.71
478,Lusambo,210379,-4.9667,23.45,71.65,97,100,1.59
479,Arcata,5558953,40.8665,-124.0828,56.17,76,1,6.91
480,Fort-Shevchenko,609906,44.5086,50.263,61.72,45,37,20.56
481,Vidim,2013406,56.4088,103.1106,37.87,92,100,9.82
482,Plainview,5131638,40.7765,-73.4673,65.61,34,40,24.16
483,Coihueco,3894406,-36.6167,-71.8333,60.8,72,90,14.97
484,Cravo Norte,3685702,6.3017,-70.2041,73.26,90,100,4.41
485,Piaçabuçu,3454005,-10.4056,-36.4344,81.72,72,28,12.21
486,Vavuniya,1225018,8.7514,80.4971,76.06,94,72,3.42
487,Wright,5053485,45.1833,-93.9502,51.33,37,1,4.61
488,Lac Du Bonnet,6014443,50.2536,-96.0612,51.01,63,97,5.01
489,Belaya Kholunitsa,578152,58.84,50.8528,43.29,88,100,11.07
490,Bonthe,2409914,7.5264,-12.505,84.78,66,74,12.26
491,Kedrovyy,1538641,56.1667,91.8167,37.4,65,0,2.24
492,Victor Harbor,2059470,-35.5667,138.6167,66.45,46,100,8.9
493,Walvis Bay,3359638,-22.9575,14.5053,62.83,55,0,4.61
494,Verkh-Usugli,2013459,52.7,115.1667,30.49,78,26,3.47
495,Uvira,204405,-3.4067,29.1458,73.56,84,98,2.66
496,Khani,610864,41.9563,42.9566,57.2,88,75,4.61
497,Djibo,2361177,14.1022,-1.6306,103.19,13,55,2.48
498,Asău,686090,46.4333,26.4,62.01,41,30,7.99
499,Thunder Bay,6166142,48.4001,-89.3168,52.36,24,1,13.8
500,Āwash,343134,8.9833,40.1667,69.46,85,86,4.99
501,Raudeberg,3146487,61.9875,5.1352,42.01,71,12,19.57
502,Villiers,943937,-27.0303,28.6006,54.64,73,59,2.68
503,Grindavik,3416888,63.8424,-22.4338,39.2,70,75,24.16
504,Kargil,1267776,34.5667,76.1,38.86,54,85,5.37
505,Antofagasta,3899539,-23.65,-70.4,68.4,77,75,13.8
506,San Felipe,3628423,10.3399,-68.7425,85.21,56,88,3.91
507,Beringovskiy,2126710,63.05,179.3167,23.59,90,88,4.79
508,Jalu,86049,29.0331,21.5482,93.52,10,0,10.09
509,Tapejara,3446922,-28.0681,-52.0139,70.92,39,0,6.69
510,Plato,3792392,9.7903,-74.7824,90.95,49,100,4.21
511,Verkhoyansk,2013465,67.5447,133.385,24.8,91,99,0.89
512,Todos Santos,3981432,23.45,-110.2167,69.01,82,0,1.99
513,Ürümqi,1529102,43.801,87.6005,77.0,14,0,11.18
514,Katangli,2122783,51.7102,143.2326,30.76,94,100,7.4
515,Zhezkazgan,1516589,47.8043,67.7144,50.52,35,43,9.06
516,Eminabad,1179406,32.0422,74.2594,88.43,37,40,11.5
517,Nizhneudinsk,1497549,54.9076,99.0276,35.85,92,100,3.65
518,Gresham,5729485,45.4982,-122.4315,62.26,59,20,4.61
519,Dunedin,2191562,-45.8742,170.5036,48.0,73,31,5.99
520,Arrondissement De Bourg-En-Bresse,3031008,46.1667,5.1667,51.22,87,100,1.99
521,Kudahuvadhoo,1337607,2.6708,72.8944,83.48,69,10,2.01
522,Olafsvik,3414079,64.8945,-23.7142,36.93,65,56,25.95
523,Kamenka,553766,51.3223,42.7678,53.01,72,100,1.99
524,Yatou,1786855,37.15,122.3833,45.01,80,98,8.39
525,Taitung City,6949678,22.7583,121.1444,73.27,70,96,3.87
526,Padang,1633419,-0.9492,100.3543,78.12,86,98,3.29
527,Raton,5486795,36.9034,-104.4391,65.43,23,1,10.36
528,Pangnirtung,6096551,66.1451,-65.7125,33.8,86,75,3.44
529,Quelimane,1028434,-17.8786,36.8883,80.6,89,20,9.22
530,Sahuaripa,3988265,29.05,-109.2333,84.69,17,2,15.1
531,Mount Hagen,2090409,-5.8581,144.2274,56.5,97,100,1.95
532,Coyhaique,3894426,-45.5752,-72.0662,57.2,58,75,5.75
533,Minot,5690532,48.2325,-101.2963,56.5,26,20,24.16
534,Linqiong,1803365,30.4159,103.4609,72.3,88,0,2.24
535,Vostok,2013279,46.4856,135.8833,32.34,84,1,2.04
536,Gurupi,3461724,-11.7292,-49.0686,88.34,46,97,7.99
537,Phalombe,924206,-15.8064,35.6507,69.26,86,16,2.93
538,Northam,2641434,51.0333,-4.2167,48.02,71,16,3.0
539,Mackay,2159220,-21.15,149.2,65.32,94,31,9.22
540,Kerman,128234,30.2832,57.0788,62.6,51,75,2.3
541,Santa Isabel,3450188,-23.3156,-46.2214,73.4,49,0,9.22
542,Moindou,2140466,-21.6924,165.677,68.0,73,0,3.44
543,Fare,4034496,-16.7,-151.0167,80.33,70,98,3.71
544,Weiswampach,2959989,50.1372,6.075,45.7,56,95,3.0
545,Aykhal,2027296,66.0,111.5,26.92,98,100,4.45
546,Dwārka,1272140,22.2394,68.9678,83.23,74,100,10.4
547,Sedalia,4408000,38.7045,-93.2283,74.8,27,1,3.44
548,Apple Valley,5324363,34.5008,-117.1859,82.04,13,14,1.01
549,Ginir,336454,7.1333,40.7,59.25,93,98,2.64
550,Albion,4983905,42.2431,-84.753,51.26,46,75,10.36
551,Erenhot,2037485,43.6475,111.9767,40.17,42,20,6.46
552,Gibara,3558315,21.1097,-76.1317,91.4,40,75,8.05
553,Umluj,100926,25.0213,37.2685,84.42,50,2,7.11
554,Stokmarknes,3136690,68.5646,14.9108,33.8,64,75,4.61
555,Aitape,2101169,-3.1374,142.3475,77.52,87,83,4.97
556,Leshukonskoye,535839,64.8989,45.7622,35.11,67,99,3.69
557,Chapais,5919850,49.7834,-74.8492,60.8,31,40,8.05
558,Marang,1734715,5.2056,103.2059,78.4,94,40,2.3
559,Lokosovo,1500399,61.1333,74.8167,34.81,90,91,9.04
560,Meulaboh,1214488,4.1363,96.1285,77.86,87,76,3.47
561,Bundaberg,2173323,-24.85,152.35,66.02,94,40,6.91
562,Mossamedes,3347019,-15.1961,12.1522,75.49,77,6,7.81
563,Mayo,4362001,38.8876,-76.5119,68.77,34,1,20.71
564,Sakaiminato,1853174,35.55,133.2333,51.8,93,75,3.44
565,Luanda,2240449,-8.8368,13.2343,80.6,83,20,8.05
566,Boddam,2655288,57.4667,-1.7833,42.93,81,75,3.44
567,Waingapu,1622318,-9.6567,120.2641,77.65,86,8,5.08
568,Marataizes,3457819,-21.0433,-40.8244,74.93,65,76,13.62
569,Xingcheng,2033766,40.6167,120.7167,46.18,70,72,5.97
570,Ternate,1624041,0.8,127.4,80.62,77,70,1.48
